%time,field.stamp,field.px,field.py,field.vx,field.vy,field.ux,field.uy
1749000000,1749000000,0.04483702379845354,2.9549627613148925,0.07327455022858331,0.0727264592966304,0.2,0.2
1849000000,1849000000,0.0543106108467141,2.9454048914576805,0.08038742548766412,0.07856052333451992,0.2,0.2
1949000000,1949000000,0.0610845748891055,2.9385253626067156,0.08483892230210058,0.08447442459919458,0.2,0.2
2050000000,2049000000,0.07222505045033183,2.927472138995324,0.0926131009680475,0.09256302160745504,0.2,0.2
2149000000,2149000000,0.07999335873343902,2.9195937571737565,0.09693941025764548,0.09651960372934489,0.2,0.2
2249000000,2249000000,0.09254931052766467,2.906909961991274,0.10592150916125634,0.10600239708231919,0.2,0.2
2349000000,2349000000,0.10163331012838743,2.8979606627114656,0.11020025512422686,0.11431501090005194,0.2,0.2
2451000000,2450000000,0.11590897288977405,2.883743083856528,0.11774493175073746,0.11799652687679288,0.2,0.2
2549000000,2549000000,0.12583172405712081,2.873791020305114,0.12245948538128945,0.12262102607343721,0.2,0.2
2649000000,2649000000,0.13605498192953222,2.8634224941846145,0.12739441982479605,0.12617631006413374,0.2,0.2
2749000000,2749000000,0.1523889024074836,2.8471535923349593,0.13464608991178714,0.13474648428241806,0.2,0.2
2849000000,2849000000,0.16356453292086967,2.835770713397605,0.13988999157247972,0.1377106676242162,0.2,0.2
2949000000,2949000000,0.18125698051893363,2.817916196860809,0.14743953616178823,0.14670571689507345,0.2,0.2
3049000000,3049000000,0.1938484223102689,2.8054558133982535,0.15247350515376468,0.15667396985801813,0.2,0.2
3149000000,3149000000,0.21342965487375237,2.7860210216156482,0.16041964884539345,0.16017964723053962,0.2,0.2
3249000000,3249000000,0.22683288248254985,2.772596241189933,0.16445356844491515,0.16448518535724116,0.2,0.2
3349000000,3349000000,0.2405124945237082,2.7587364065341826,0.1699836601393021,0.16823581015683736,0.2,0.2
3449000000,3449000000,0.26204009852409305,2.7372583663266448,0.17724909910184528,0.17754414755397932,0.2,0.2
3549000000,3549000000,0.2767895086397623,2.7223967897836907,0.18213905011385945,0.1804620541670767,0.2,0.2
3651000000,3650000000,0.2996700284952129,2.6993393402200043,0.19010166706324044,0.1883066150385305,0.2,0.2
3749000000,3749000000,0.31555415464737235,2.6834038946610783,0.1949197939737571,0.19482155714413368,0.2,0.2
3849000000,3849000000,0.3403893469431073,2.658751667666752,0.20215116013530113,0.20303239423978994,0.2,0.2
3950000000,3949000000,0.35726230404546155,2.6418295128906664,0.20704199720479183,0.2070588160863255,0.2,0.2
4049000000,4049000000,0.3832165808523624,2.6156868388999435,0.21440831740486677,0.21362354687077975,0.2,0.2
4149000000,4149000000,0.4011709381491182,2.597777533161917,0.21943724652232544,0.22009184280695113,0.2,0.2
4249000000,4249000000,0.4193639672447642,2.5794412640774924,0.2244167721016603,0.2226692448678485,0.2,0.2
4349000000,4349000000,0.44739589123846996,2.551140431520148,0.23212550787506098,0.23094612572896844,0.2,0.2
4449000000,4449000000,0.4667175623962959,2.5317146549172653,0.23802762209331996,0.23836499255844054,0.2,0.2
4549000000,4549000000,0.49686583716605914,2.5018429864276692,0.24495964285677796,0.24604857095047283,0.2,0.2
4652000000,4651000000,0.5172329283781046,2.481407561917676,0.24949304714160925,0.25050669636613876,0.2,0.2
4749000000,4749000000,0.5483566424432776,2.4500253841632924,0.25703932481675806,0.25582106475828664,0.2,0.2
4849000000,4849000000,0.5697596124161888,2.428646778197791,0.260799029316199,0.2641727941323967,0.2,0.2
4949000000,4949000000,0.5915336843695782,2.4068032713584886,0.266729984606037,0.267612403020806,0.2,0.2
5049000000,5049000000,0.6248076668293661,2.373298240897566,0.27423877543013336,0.27459449640248224,0.2,0.2
5149000000,5149000000,0.6475663197185089,2.350378108809723,0.2799689961298622,0.28104973112477677,0.2,0.2
5249000000,5249000000,0.6827740695060065,2.3152494897540845,0.28759835050610905,0.289927170775148,0.2,0.2
5349000000,5349000000,0.7066210094280388,2.2913443547854224,0.2917703850206574,0.2930676531230577,0.2,0.2
5449000000,5449000000,0.7430138495059831,2.2547274821226946,0.299243000459646,0.29852761875455497,0.2,0.2
5550000000,5549000000,0.7678403524130678,2.2298406198487584,0.30327462928498045,0.30656283872495693,0.2,0.2
5649000000,5649000000,0.8057335748240606,2.1917092645520238,0.31137342196912693,0.3103079496340878,0.2,0.2
5749000000,5749000000,0.8314528767679925,2.165769205704292,0.3162983421440995,0.31701902488226363,0.2,0.2
5849000000,5849000000,0.8575978248158054,2.139407334085423,0.321349568894518,0.3217824189950714,0.2,0.2
5949000000,5949000000,0.8981180314927156,2.0990531496774953,0.3288380967405837,0.3347077210594799,0.2,0.2
6050000000,6049000000,0.9254242384241692,2.0716280722612828,0.33426282063305557,0.3352746930289359,0.2,0.2
6149000000,6149000000,0.9670125013029216,2.0297912996045318,0.3413398187631646,0.3411306566696716,0.2,0.2
6249000000,6249000000,0.9951937738389739,2.001390615893637,0.3457722556009943,0.34706349354321586,0.2,0.2
6349000000,6349000000,1.0384416861758574,1.9580521215997315,0.3535076050747925,0.35518026354554133,0.2,0.2
6449000000,6449000000,1.0676121181819842,1.928650833349205,0.3577793200405082,0.3591430591656905,0.2,0.2
6549000000,6549000000,1.0972241992928444,1.8987899549513476,0.3638851785267898,0.3635278306350545,0.2,0.2
6649000000,6649000000,1.1427403755476275,1.8532099932240853,0.3709312847352398,0.37690107367338954,0.2,0.2
6749000000,6749000000,1.173572715739479,1.822299560676742,0.37587517536350123,0.37824025943414247,0.2,0.2
6850000000,6849000000,1.2204122383117597,1.7752238072686117,0.38317525173080597,0.3852917252391347,0.2,0.2
6949000000,6949000000,1.2520222181053393,1.743326103622699,0.3880668101633208,0.38885899146481356,0.192450271613698,0.1911530046654648
7049000000,7049000000,1.300340311578546,1.6948329794313437,0.394115620275965,0.39599645512756143,0.1197234453589473,0.11432368823147643
7149000000,7149000000,1.3326424641895245,1.6621488019481154,0.39708569331446536,0.3966870920957544,0.07513326301789136,0.07928502527325842
7252000000,7249000000,1.3815323709034109,1.6128403519024863,0.39923624310733263,0.4003522626769271,0.017183697096331496,0.015773717371950546
7349000000,7349000000,1.4144684956223341,1.5798612714884992,0.3994689221243255,0.4054589845248238,-0.016752316844872217,-0.037563022172933946
7449000000,7449000000,1.4473628134895375,1.5469389767904633,0.3993433905263606,0.40120224465123955,-0.04919866933638595,-0.05340415321341241
7550000000,7549000000,1.4961381789791683,1.4977850728796194,0.39611533975551333,0.3972745034075198,-0.08547919570506779,-0.08642939569642771
7648000000,7649000000,1.531401450621902,1.4724298500318826,0.22786218362802002,0.463624826917983,0.2,-0.2
7749000000,7749000000,1.577133556250055,1.4661258408344071,0.05934091267027203,0.32307184516320686,0.2,0.1294110967831119
7849000000,7849000000,1.6040997881174444,1.4638185439119626,0.059516573726612426,0.3251803233631622,0.2,0.09401279802820373
7950000000,7949000000,1.6452393939088477,1.4606776838220126,0.05964628900560526,0.332459414014384,0.2,0.02375934382675693
8049000000,8049000000,1.6725647138317545,1.4586719810614808,0.05988897711543681,0.32838161332421334,0.2,0.012746832523203855
8151000000,8150000000,1.7134190222331775,1.4558779611662322,0.05932266463468949,0.3264551893523614,0.2,-0.02039954208453776
8249000000,8249000000,1.7405442899144996,1.4541044636917133,0.05842900851776836,0.3266025950944207,0.2,-0.04811301185012784
8349000000,8349000000,1.767721909894715,1.4524410349520067,0.058623781650709944,0.32573210034245664,0.2,-0.07180731957259212
8449000000,8449000000,1.8079681489655695,1.4499746480322486,0.0575178252625011,0.3215384940956204,0.2,-0.0952771568455173
8549000000,8549000000,1.8345554618180735,1.4483359324594571,0.05843928531634757,0.31832954006916264,0.2,-0.1090273402092179
8650000000,8649000000,1.8743204430126597,1.4459842611745586,0.05744874565256328,0.3195549208713089,0.2,-0.15369195930552038
8749000000,8749000000,1.900440370577107,1.4444434632446232,0.05713749694534359,0.31199998043755184,0.2,-0.14959088987459435
8851000000,8849000000,1.9388502508745478,1.4422106342261298,0.05661688402181547,0.30566228956493,0.2,-0.16264821644160987
8949000000,8949000000,1.9639215040822973,1.44073155411391,0.056240575110440116,0.30012341686111765,0.2,-0.16556279305381283
9049000000,9049000000,1.9888237100151531,1.4393243081016653,0.05615336669251725,0.29718741415979766,0.2,-0.17871985965810389
9149000000,9149000000,2.025195212573275,1.4371703060942762,0.05576110423263435,0.2880105321070522,0.2,-0.1783821071836651
9249000000,9249000000,2.0490291091865713,1.435737038752145,0.055780970079655726,0.2841341300414195,0.2,-0.1867092466283924
9349000000,9349000000,2.0843520003147997,1.433607417572688,0.055200463898144314,0.28253233659288884,0.2,-0.2
9449000000,9449000000,2.107501856968912,1.4322172758215785,0.0554807876653413,0.274300896025127,0.2,-0.2
9553000000,9549000000,2.141298030125024,1.4300813579353175,0.055737234515897655,0.2680059436584279,0.2,-0.2
9649000000,9649000000,2.1631801197493576,1.4286709687003052,0.05443099503319816,0.2595174023063491,0.2,-0.2
9753000000,9749000000,2.195314707192996,1.4265576094709511,0.054217151768266345,0.2536216614930444,0.2,-0.2
9849000000,9849000000,2.216193034631206,1.4251741960228355,0.053858195328851416,0.24845660911650763,0.2,-0.2
9949000000,9949000000,2.236622001486785,1.4237748056499562,0.054289495684605754,0.24370265225055926,0.2,-0.2
10050000000,10049000000,2.2665724360435053,1.4216559588602575,0.05395049318461238,0.23610020315590244,0.2,-0.2
10149000000,10149000000,2.2860037385504683,1.4202514743030628,0.052356601483536575,0.22886175464301284,0.2,-0.2
10249000000,10249000000,2.3144156646546037,1.418092915189922,0.052258768666128344,0.22123601651463665,0.2,-0.2
10350000000,10349000000,2.3329157094314237,1.4166154962406996,0.05337558849602596,0.21902681086496345,0.2,-0.2
10452000000,10450000000,2.3598387707019297,1.4145662995571833,0.049680913113679295,0.2132342547429968,0.2,-0.2
10549000000,10549000000,2.3774219825803575,1.4134039507943559,0.05053252836225851,0.20934840681121275,0.2,-0.2
10649000000,10649000000,2.394791553865513,1.412218594798134,0.05004055581960434,0.20399145240170455,0.2,-0.2
10749000000,10749000000,2.4204251529589986,1.4103570557639724,0.05146823722103658,0.19909869173601796,0.2,-0.2
10849000000,10849000000,2.437286593985492,1.409048938147975,0.05367416772306671,0.19873112147995675,0.2,-0.2
10949000000,10949000000,2.462019340801198,1.407063832184292,0.05479180660591018,0.19397366653838932,0.2,-0.2
11049000000,11049000000,2.478157303270791,1.4057034051755284,0.05576011353346544,0.18999303070282708,0.2,-0.2
11150000000,11150000000,2.5019997334636277,1.4036072819051877,0.05684542074390149,0.18524782600481843,0.2,-0.2
11249000000,11249000000,2.5175772695154643,1.4021857311889145,0.056270874333120016,0.1798906922349881,0.2,-0.2
11355000000,11353000000,2.540537598920342,1.399975451859573,0.05734701333463878,0.1751082023838737,0.2,-0.2
11449000000,11449000000,2.555627939161933,1.3984439634642134,0.059192618777723444,0.17487013350174718,0.2,-0.2
11549000000,11549000000,2.570358519691573,1.3969012113036072,0.06007228976753589,0.170917725844204,0.2,-0.2
11650000000,11649000000,2.592099334861598,1.394531016903932,0.061002041455048485,0.16617494519083062,0.2,-0.2
11749000000,11749000000,2.6062814735521167,1.3929322305570198,0.06006190309506695,0.16095263884703398,0.2,-0.2
11849000000,11849000000,2.6271576173577214,1.390444748347973,0.06101558609088034,0.15618959386234638,0.2,-0.2
11949000000,11949000000,2.6408709931240404,1.388735578716591,0.06269116159750505,0.15605727393219004,0.2,-0.2
12050000000,12050000000,2.660900905071079,1.3861366858148159,0.06342668711121874,0.1513762823913848,0.2,-0.2
12149000000,12149000000,2.673919360682158,1.384364337295139,0.06406736793025102,0.14750305771374464,0.2,-0.2
12251000000,12250000000,2.6931040371783546,1.3816450217521887,0.06478310031398708,0.1428226830306128,0.2,-0.2
12349000000,12349000000,2.705590278475021,1.3798114911633896,0.06369680133301228,0.13764843148593242,0.2,-0.2
12450000000,12449000000,2.7179538927267104,1.37791388592328,0.06532931038274722,0.13746497948653685,0.2,-0.2
12550000000,12549000000,2.735968905696529,1.3750267910573548,0.06595865772170727,0.13280978768271556,0.2,-0.2
12650000000,12649000000,2.7476521421199833,1.3730669447839459,0.06622464951777947,0.12909487244454318,0.2,-0.2
12751000000,12751000000,2.764761311624631,1.3703265961262239,0.06012049645079304,0.12451727006248628,0.2,-0.2
12849000000,12849000000,2.77560892062525,1.3687910284066596,0.059031710074121335,0.11689222130907925,0.2,-0.2
12949000000,12949000000,2.7911035152800707,1.3664500922701677,0.05696905066777067,0.10893054835892499,0.2,-0.2
13050000000,13049000000,2.800977890990023,1.3648476122500803,0.05732873931101951,0.10659975474240369,0.2,-0.2
13149000000,13149000000,2.8103048005718816,1.3632093690848888,0.056733053873000816,0.10065352623152574,0.2,-0.2
13249000000,13249000000,2.823599993251698,1.3606501704845477,0.05574647761330918,0.09298252141526064,0.2,-0.19661365691828747
13349000000,13349000000,2.8319336258081216,1.3588855592924105,0.05356619981405441,0.08582228213461453,0.2,-0.17630492450277085
13449000000,13449000000,2.8437782499676048,1.3561018640165554,0.05271374652258912,0.07897032058977131,0.2,-0.16073948199642513
13549000000,13549000000,2.8513203917739682,1.354169324209137,0.05333647107337955,0.07767727638906594,0.2,-0.1631079056755257
13649000000,13649000000,2.861910606074144,1.3511931732280626,0.0525437716548756,0.07172987262305597,0.2,-0.14990613156532095
13750000000,13749000000,2.8685395934467803,1.349153094149392,0.052084006415445985,0.06730599577902933,0.2,-0.13883798489054716
13849000000,13849000000,2.8780346522459332,1.3460259055654977,0.05111939974477033,0.06212884997417928,0.2,-0.12762196719592
13949000000,13949000000,2.8840076872652896,1.3439118929140084,0.049149429658091305,0.05668684607810798,0.2,-0.11182530129239043
14049000000,14049000000,2.889838011437854,1.3417474526754183,0.04978906865464011,0.05659138623513659,0.2,-0.1172720606428834
14149000000,14149000000,2.8980262592403556,1.3384679594503324,0.048957133393981715,0.05230926114605841,0.2,-0.1083291939447869
14249000000,14249000000,2.903275688164493,1.3363086236832247,0.04871335797938564,0.050951189119565525,0.2,-0.10814461356177715
14351000000,14349000000,2.911166729394066,1.3329355017507754,0.050041796219193864,0.04957342846562625,0.2,-0.11052192356650165
14449000000,14449000000,2.9162530768452295,1.330740625148213,0.04704783439518526,0.04530966882664313,0.2,-0.09855148301014846
14551000000,14549000000,2.923471586238476,1.3274670649833813,0.04538158118945483,0.041178383662000335,0.2,-0.08924224263266603
14650000000,14649000000,2.9280892465161408,1.3252856107397022,0.045787491668126325,0.04159627119751362,0.2,-0.09552971443798824
14750000000,14749000000,2.9323716182836246,1.323110452994326,0.045174502625798835,0.03848188982575122,0.2,-0.08735282722440568
14849000000,14849000000,2.938519943880234,1.3198594129245318,0.04399756850437737,0.03518077996258167,0.2,-0.08029412252885379
14949000000,14949000000,2.942369927588737,1.3177092371382948,0.04170070601773718,0.030906777234264736,0.2,-0.06704638186097087
15050000000,15049000000,2.9478776846320534,1.3144710473945944,0.04057816394914189,0.028035483806569072,0.2,-0.06106638479018227
15149000000,15149000000,2.951435168327966,1.3123134119564526,0.04114383055424666,0.029203194220565682,0.2,-0.0692929908313847
15249000000,15249000000,2.9563738517547575,1.3091104713609052,0.03999277815238907,0.026675919627649945,0.2,-0.06412002373346545
15349000000,15349000000,2.959440897344492,1.3069825938192217,0.03939750365654408,0.024399879083169065,0.2,-0.058081211687090004
15451000000,15449000000,2.9638753568604552,1.3038303154192434,0.03825636511845469,0.022207805921071386,0.2,-0.05374486690514714
15550000000,15549000000,2.966648491343399,1.3017623363857218,0.03609910602686541,0.018610360318528966,0.2,-0.04212657131170669
15649000000,15649000000,2.969409092694573,1.2997013872957623,0.03655449719434642,0.020265479738360126,0.2,-0.05150600827809715
15750000000,15749000000,2.973216608666622,1.2966588671484336,0.03536635096152203,0.018424496172319463,0.2,-0.047947165938679925
15850000000,15849000000,2.975566322429032,1.2946550383909095,0.03471680139981444,0.016546764917114595,0.2,-0.042784358232887496
15950000000,15949000000,2.9789739320311854,1.2917142118497298,0.03350143437540609,0.014932424646448294,0.2,-0.03973226381320498
16049000000,16049000000,2.9810925477463575,1.2898023362491478,0.03128671536114795,0.011687129833478355,0.2,-0.028868177127143048
16155000000,16149000000,2.9841323879776738,1.2869810309445722,0.030042041584398098,0.010263383517191867,0.2,-0.026210784448703867
16249000000,16249000000,2.9861229601986623,1.285142285870508,0.030431288515971017,0.012325767301203818,0.2,-0.03644942693277683
16349000000,16349000000,2.9878928626731067,1.283333559411826,0.029729832076742943,0.0107404642515827,0.2,-0.031876676310365046
16450000000,16449000000,2.9904629359610553,1.280706013238444,0.028436834763118816,0.009539829970861322,0.2,-0.02964211927533794
16549000000,16549000000,2.992043889509449,1.2790147308785018,0.026174528643335207,0.006556040238039207,0.2,-0.01928656657785486
16650000000,16649000000,2.994306487757562,1.2765423799336284,0.024857219609692466,0.0055043617179068504,0.2,-0.017340481228944795
